timestamp,lat,lon,alt,velocity_north,velocity_east,velocity_down,roll,pitch,yaw,speed_mps,speed_kph,acc_north,acc_east,acc_mag,yaw_rate,harsh_brake,harsh_accel,harsh_turn,speeding,risky,heading,heading_change,sharp_turn
1970-01-18 21:45:31.010502681,51.762042,-1.262751,65.176138,-0.002641,-0.009348,0.002886,-0.048323,-0.019216,2.670241,0.009713906783575803,0.034970064420872894,0.0,0.0,0.0,0.0,0,0,0,0,0,2.670241,0.0,0
1970-01-18 21:45:31.010702733,51.762042,-1.262751,65.178802,-0.00341,-0.010873,0.002329,-0.048396,-0.019207,2.670274,0.011395184465378348,0.04102266407536205,-3.8440005598544364,-7.62301801531602,8.53737336456558,0.1649571111519594,1,0,0,0,1,2.670274,3.300000000017178e-05,0
1970-01-18 21:45:31.010902785,51.762042,-1.262751,65.178116,-0.003529,-0.010093,0.003672,-0.048327,-0.019215,2.67026,0.010692169564686112,0.038491810432870005,-0.5948453402115459,3.8989862635714774,3.944101274345077,-0.06998180473167244,0,0,0,0,0,2.67026,1.4000000000180535e-05,0
1970-01-18 21:45:31.011102837,51.762042,-1.262751,65.17734,-0.00412,-0.009861,0.003845,-0.04836,-0.019211,2.670241,0.010687081968432731,0.038473495086357834,-2.9542318997060786,1.159698478395615,3.173702361286277,-0.09497530642028697,0,0,0,0,0,2.670241,1.8999999999991246e-05,0
1970-01-18 21:45:31.011302890,51.762041,-1.262751,65.176648,-0.004284,-0.011291,0.003102,-0.04832,-0.019203,2.670245,0.012076395861348701,0.043475025100855325,-0.8197827575692402,-7.14810575197573,7.1949607094852395,0.019994701404702865,0,0,0,0,0,2.670245,4.000000000115023e-06,0
1970-01-18 21:45:31.011502942,51.762041,-1.262751,65.176092,-0.003945,-0.011278,0.002627,-0.048354,-0.019206,2.670267,0.011948067165864109,0.04301304179711079,1.694559414552216,0.06498310439286215,1.6958049455359197,0.10997140743389965,0,0,0,0,0,2.670267,2.199999999996649e-05,0
1970-01-18 21:45:31.011702994,51.762042,-1.262751,65.177908,-0.003921,-0.01026,0.002149,-0.048328,-0.019198,2.670251,0.010983707980459058,0.03954134872965261,0.11996880810989001,5.088676943994561,5.090090918172399,-0.07997920540667428,0,0,0,0,0,2.670251,1.6000000000016e-05,0
1970-01-18 21:45:31.011902238,51.762042,-1.262751,65.177564,-0.003997,-0.009801,0.001768,-0.048347,-0.019202,2.670237,0.01058468752491069,0.03810487508967848,-0.38144185019373067,2.303708016301617,2.335073555469195,-0.07026560398173318,0,0,0,0,0,2.670237,1.3999999999736445e-05,0
1970-01-18 21:45:31.012102234,51.762042,-1.262751,65.177257,-0.005023,-0.010282,0.000459,-0.048338,-0.01922,2.67024,0.011443340989413887,0.041196027561889996,-5.130102602052041,-2.4050481009620133,5.665881138492239,0.01500030000587634,1,0,0,0,1,2.67024,2.9999999999752447e-06,0
1970-01-18 21:45:31.012302286,51.762041,-1.262751,65.177046,-0.005988,-0.011037,0.000999,-0.048339,-0.019198,2.670251,0.012556731780204593,0.04520423440873654,-4.823745826085221,-3.7740187551236706,6.124682959851866,0.05498570371583989,1,0,0,0,1,2.670251,1.09999999997612e-05,0
1970-01-18 21:45:31.012502338,51.762041,-1.262751,65.176816,-0.005486,-0.011284,0.001388,-0.04835,-0.019205,2.670256,0.01254690607281333,0.04516886186212799,2.509347569631895,-1.2346789834643028,2.796651107561675,0.024993501690834388,0,0,0,0,0,2.670256,5.000000000254801e-06,0
1970-01-18 21:45:31.012702390,51.762042,-1.262751,65.177295,-0.005931,-0.009732,0.001196,-0.048369,-0.01922,2.670247,0.011396867332736657,0.04102872239785197,-2.2244216503709,7.757982924439653,8.070585526127335,-0.044988303043057926,0,0,0,0,0,2.670247,9.000000000369823e-06,0
1970-01-18 21:45:31.012902442,51.762042,-1.262751,65.176801,-0.005811,-0.01014,0.002349,-0.048362,-0.01921,2.670235,0.01168705784190358,0.04207340823085289,0.5998440405494544,-2.0394697378681563,2.1258526958993893,-0.05998440405445074,0,0,0,0,0,2.670235,1.1999999999900979e-05,0
1970-01-18 21:45:31.013102494,51.762042,-1.262751,65.17638,-0.005606,-0.01081,0.00247,-0.048355,-0.019225,2.670241,0.012177164530382267,0.043837792309376164,1.024733569271991,-3.3491292264011383,3.5023913920530356,0.02999220202722537,0,0,0,0,0,2.670241,5.999999999950489e-06,0
1970-01-18 21:45:31.013302244,51.762041,-1.262751,65.176002,-0.006164,-0.011017,0.001786,-0.04836,-0.019223,2.670232,0.01262415086253329,0.04544694310511985,-2.7934918648310405,-1.0362953692115173,2.9795142038806324,-0.04505632040012883,0,0,0,0,0,2.670232,8.999999999925734e-06,0
1970-01-18 21:45:31.013502296,51.762041,-1.262751,65.175649,-0.006126,-0.01164,0.000993,-0.048348,-0.019225,2.670235,0.013153610759027348,0.04735299873249845,0.18995061284066064,-3.114190310519258,3.1199779687444233,0.014996101013612685,0,0,0,0,0,2.670235,2.9999999999752447e-06,0
1970-01-18 21:45:31.013702348,51.762042,-1.262751,65.177614,-0.00548,-0.00989,0.001412,-0.048373,-0.019219,2.670333,0.01130674577409433,0.04070428478673959,3.229160418291248,8.74772559134625,9.324708039855885,0.4898726331150475,0,0,1,0,1,2.670333,9.799999999993148e-05,1
1970-01-18 21:45:31.013902400,51.762042,-1.262751,65.177412,-0.005008,-0.010012,0.001214,-0.048358,-0.019228,2.670332,0.011194650865480353,0.04030074311572927,2.3593865594945282,-0.6098414412252844,2.4369266547352546,-0.004998700336390983,0,0,0,0,0,2.670332,9.999999996956888e-07,0
1970-01-18 21:45:31.014102452,51.762042,-1.262751,65.177259,-0.006512,-0.010793,0.000913,-0.04835,-0.01923,2.670336,0.012605355726832941,0.04537928061659859,-7.518045308219864,-3.903984963909386,8.471251610882378,0.019994801350003668,1,0,0,0,1,2.670336,3.9999999996709334e-06,0
1970-01-18 21:45:31.014302504,51.762041,-1.262751,65.177039,-0.007525,-0.011413,0.00082,-0.048341,-0.019226,2.670337,0.01367048623860907,0.04921375045899266,-5.063683442304996,-3.099194209505524,5.936825309212521,0.004998700338610851,1,0,0,0,1,2.670337,1.000000000139778e-06,0
1970-01-18 21:45:31.014502556,51.762041,-1.262751,65.176875,-0.007297,-0.011225,0.000969,-0.048342,-0.019226,2.670347,0.013388309602037145,0.04819791456733372,1.1397036770439681,0.9397556635274775,1.4771814981915767,0.049987003379448905,0,0,0,0,0,2.670347,1.0000000000065512e-05,0
1970-01-18 21:45:31.014702608,51.762042,-1.262751,65.175413,-0.00655,-0.009162,0.000709,-0.048362,-0.019219,2.670244,0.011262537191947471,0.0405451338910109,3.734029152420368,10.312318797112754,10.967538132343567,-0.5148661348058818,0,1,1,0,1,2.670244,0.00010300000000018628,1
1970-01-18 21:45:31.014902294,51.762042,-1.262751,65.175329,-0.006876,-0.008892,0.000449,-0.048362,-0.019217,2.67023,0.011240419920981602,0.04046551171553377,-1.6325631241048442,1.3521228328475676,2.119787373604886,-0.07011007281299864,0,0,0,0,0,2.67023,1.3999999999736445e-05,0
1970-01-18 21:45:31.015102345,51.762042,-1.262751,65.175272,-0.006823,-0.009124,-0.000169,-0.048359,-0.019209,2.670228,0.011393011234963302,0.04101484044586789,0.26493244222723256,-1.1597042754097684,1.1895811049895597,-0.009997450651481651,0,0,0,0,0,2.670228,2.000000000279556e-06,0
1970-01-18 21:45:31.015302397,51.762041,-1.262751,65.175393,-0.007106,-0.009208,-0.001165,-0.048368,-0.019212,2.670236,0.011631100549819006,0.04187196197934842,-1.414632195629138,-0.41989082838461506,1.475632934259748,0.039989602704447076,0,0,0,0,0,2.670236,8.000000000230045e-06,0
1970-01-18 21:45:31.015502449,51.762041,-1.262751,65.175683,-0.006688,-0.008722,-0.001566,-0.04836,-0.019208,2.670241,0.010991024883967828,0.03956768958228418,2.0894567412472758,2.4293683642252946,3.2043189795403277,0.024993501688614517,0,0,0,0,0,2.670241,4.999999999810711e-06,0
1970-01-18 21:45:31.015702501,51.762042,-1.262751,65.174278,-0.006003,-0.007177,-0.00152,-0.04838,-0.019205,2.670257,0.009356566571130672,0.03368363965607042,3.4241097314698217,7.722992022074263,8.448025403972755,0.07997920540667428,0,0,0,0,0,2.670257,1.6000000000016e-05,0
1970-01-18 21:45:31.015902553,51.762042,-1.262751,65.17466,-0.006173,-0.007902,-0.002323,-0.048366,-0.019206,2.670254,0.010027339278193393,0.03609842140149622,-0.8497790574450644,-3.6240577449862994,3.7223539575740783,-0.014996101013612685,0,0,0,0,0,2.670254,2.9999999999752447e-06,0
1970-01-18 21:45:31.016102605,51.762042,-1.262751,65.175165,-0.006425,-0.008904,-0.002888,-0.048365,-0.019211,2.670243,0.010980065619111756,0.03952823622880232,-1.2596724851538625,-5.008697738587974,5.164671122771516,-0.05498570371583989,0,0,0,0,0,2.670243,1.09999999997612e-05,0
1970-01-18 21:45:31.016302657,51.762042,-1.262751,65.175716,-0.006851,-0.009451,-0.002571,-0.048362,-0.019209,2.670243,0.011672943159289349,0.042022595373441655,-2.129446343950574,-2.7342890848379366,3.4656714401726467,0.0,0,0,0,0,0,2.670243,0.0,0
1970-01-18 21:45:31.016502709,51.762041,-1.262751,65.176265,-0.007496,-0.009838,-0.002594,-0.048364,-0.019211,2.670243,0.012368357207002068,0.04452608594520745,-3.224161717953331,-1.9344970307720004,3.759986375717532,0.0,0,0,0,0,0,2.670243,0.0,0
1970-01-18 21:45:31.016702251,51.762042,-1.262751,65.175003,-0.007234,-0.008775,-0.002524,-0.048376,-0.019207,2.670304,0.01137239556997557,0.04094062405191205,1.3130067855388845,5.327199286365776,5.486623648066923,0.30570005311986787,0,0,1,0,1,2.670304,6.099999999964467e-05,1
1970-01-18 21:45:31.016902302,51.762042,-1.262751,65.175462,-0.007847,-0.008236,-0.002074,-0.048383,-0.019205,2.670293,0.011375724372539975,0.04095260774114391,-3.0642186242508154,2.6943129501976975,4.080288966581727,-0.05498597857426957,0,0,0,0,0,2.670293,1.09999999997612e-05,0
1970-01-18 21:45:31.017102354,51.762042,-1.262751,65.176012,-0.007539,-0.008488,-0.002977,-0.048394,-0.019212,2.670293,0.011352650131136783,0.04086954047209242,1.5395997040769407,-1.2596724851538625,1.9892566497683277,0.0,0,0,0,0,0,2.670293,0.0,0
1970-01-18 21:45:31.017302406,51.762041,-1.262751,65.176646,-0.008035,-0.009112,-0.003539,-0.048374,-0.019211,2.670293,0.012148652970597194,0.0437351506941499,-2.479355367604427,-3.119189010857175,3.984538006384309,0.0,0,0,0,0,0,2.670293,0.0,0
1970-01-18 21:45:31.017502458,51.762041,-1.262751,65.177343,-0.007779,-0.008404,-0.003801,-0.048369,-0.019204,2.670299,0.011451639926228907,0.041225903734424064,1.2796672865055094,3.539079839241799,3.7633275797730033,0.02999220202722537,0,0,0,0,0,2.670299,5.999999999950489e-06,0
1970-01-18 21:45:31.017702510,51.762042,-1.262751,65.174058,-0.00717,-0.007253,-0.003877,-0.048397,-0.019204,2.670295,0.010198769974854811,0.03671557190947732,3.044208505788496,5.753504088936877,6.509225355457313,-0.019994801352223538,0,0,0,0,0,2.670295,4.000000000115023e-06,0
1970-01-18 21:45:31.017902469,51.762042,-1.262751,65.174953,-0.007097,-0.006759,-0.004523,-0.048384,-0.019204,2.670283,0.009800586206957215,0.035282110345045976,0.36507484034227095,2.470506453823032,2.497334934972117,-0.06001230252152181,0,0,0,0,0,2.670283,1.1999999999900979e-05,0
1970-01-18 21:45:31.018102520,51.762042,-1.262751,65.175941,-0.007117,-0.007431,-0.005575,-0.048394,-0.019202,2.670273,0.01028938530719887,0.037041787105915935,-0.09997450650084255,-3.3591434184283,3.360630805000789,-0.04998725325074862,0,0,0,0,0,2.670273,1.0000000000065512e-05,0
1970-01-18 21:45:31.018302572,51.762042,-1.262751,65.177118,-0.006835,-0.007901,-0.006132,-0.048375,-0.019204,2.67027,0.010447153966511646,0.03760975427944192,1.409633495291225,-2.349389158818707,2.73983503346859,-0.014996101013612685,0,0,0,0,0,2.67027,2.9999999999752447e-06,0
1970-01-18 21:45:31.018502624,51.762041,-1.262751,65.17841,-0.007247,-0.008284,-0.006924,-0.048384,-0.019201,2.670272,0.011006528290064946,0.039623501844233806,-2.059464539219803,-1.914502229420349,2.8118877955493393,0.009997400677221702,0,0,0,0,0,2.670272,2.000000000279556e-06,0
1970-01-18 21:45:31.018702676,51.762041,-1.262751,65.179791,-0.006,-0.007066,-0.007241,-0.048406,-0.019189,2.670272,0.00926975490506626,0.03337111765823854,6.233379321376442,6.088417011576988,8.713428686287822,0.0,0,1,0,0,1,2.670272,0.0,0
1970-01-18 21:45:31.018902728,51.762042,-1.262751,65.192856,-0.006508,-0.007274,-0.008147,-0.04838,-0.019201,2.670265,0.009760386262848413,0.03513739054625429,-2.5393397716593675,-1.039729670285725,2.743954129209071,-0.03499090236583622,0,0,0,0,0,2.670265,7.000000000090267e-06,0
1970-01-18 21:45:31.019102780,51.762042,-1.262751,65.194513,-0.006731,-0.007001,-0.008658,-0.048382,-0.0192,2.670264,0.009711867070754212,0.034962721454715164,-1.1147101753544084,1.364645192250014,1.762054277191748,-0.004998700338610851,0,0,0,0,0,2.670264,1.000000000139778e-06,0
1970-01-18 21:45:31.019302832,51.762042,-1.262751,65.196286,-0.006348,-0.008515,-0.009276,-0.048378,-0.019201,2.670259,0.010620844081333649,0.038235038692801135,1.914502229420349,-7.568032311598984,7.806435284805847,-0.024993501688614517,0,0,0,0,0,2.670259,4.999999999810711e-06,0
1970-01-18 21:45:31.019502884,51.762042,-1.262751,65.198173,-0.00643,-0.00911,-0.009642,-0.048375,-0.019202,2.670266,0.01115065020525709,0.04014234073892553,-0.4098934277087938,-2.9742267010577255,3.0023386037160407,0.03499090236361635,0,0,0,0,0,2.670266,6.999999999646178e-06,0
1970-01-18 21:45:31.019702936,51.762042,-1.262751,65.190696,-0.005488,-0.00767,-0.008418,-0.048403,-0.019188,2.670292,0.009431174052046755,0.033952226587368316,4.708775718313239,7.198128486593488,8.601489549774795,0.1299662087861232,0,1,0,0,1,2.670292,2.6000000000081513e-05,0
1970-01-18 21:45:31.019902988,51.762042,-1.262751,65.192345,-0.006289,-0.007849,-0.008282,-0.04839,-0.019195,2.670289,0.010057749350625119,0.03620789766225043,-4.003958970667629,-0.8947673604862754,4.102718131700173,-0.014996101013612685,1,0,0,0,1,2.670289,2.9999999999752447e-06,0
1970-01-18 21:45:31.020103040,51.762042,-1.262751,65.193981,-0.007339,-0.007553,-0.008208,-0.048397,-0.019196,2.67028,0.010531321379580056,0.0379127569664882,-5.248635354807749,1.4796153000219956,5.453204060348104,-0.044988303040838055,1,0,0,0,1,2.67028,8.999999999925734e-06,0
1970-01-18 21:45:31.020302807,51.762042,-1.262751,65.195648,-0.007509,-0.007952,-0.008533,-0.048404,-0.019195,2.670287,0.010937064734196283,0.03937343304310662,-0.8509914049868097,-1.9973268858219873,2.171059893275352,0.03504082255873226,0,0,0,0,0,2.670287,7.000000000090267e-06,0
1970-01-18 21:45:31.020502858,51.762042,-1.262751,65.197454,-0.008183,-0.008433,-0.009348,-0.048384,-0.019187,2.670295,0.011750616068955704,0.042302217848240536,-3.3691408690783815,-2.404386881345251,4.1391045494018845,0.03998980259926697,0,0,0,0,0,2.670295,7.999999999785956e-06,0
1970-01-18 21:45:31.020702910,51.762042,-1.262751,65.189076,-0.007297,-0.006832,-0.008007,-0.048409,-0.019179,2.670259,0.00999612089762824,0.03598603523146166,4.428848499390157,8.002919240997336,9.146661435107118,-0.17995321216335222,0,1,0,0,1,2.670259,3.5999999999702936e-05,0
1970-01-18 21:45:31.020902796,51.762042,-1.262751,65.190594,-0.007495,-0.007316,-0.007713,-0.048395,-0.01918,2.67025,0.010473723358958837,0.037705404092251815,-0.9905646218344469,-2.4213801867064184,2.6161613632580907,-0.045025664630688605,0,0,0,0,0,2.67025,9.000000000369823e-06,0
1970-01-18 21:45:31.021102847,51.762042,-1.262751,65.192151,-0.007946,-0.007521,-0.007547,-0.0484,-0.019183,2.670253,0.010940948633459532,0.03938741508045432,-2.2544251215939934,-1.024738691633635,2.4763929443860695,0.014996175977222477,0,0,0,0,0,2.670253,3.000000000419334e-06,0
1970-01-18 21:45:31.021302899,51.762042,-1.262751,65.193688,-0.008384,-0.007142,-0.00804,-0.048378,-0.019179,2.670254,0.011013610670438647,0.039648998413579134,-2.189430748005523,1.8945074280687022,2.895300570807721,0.004998700336390983,0,0,0,0,0,2.670254,9.999999996956888e-07,0
1970-01-18 21:45:31.021502951,51.762042,-1.262751,65.195271,-0.008528,-0.006851,-0.008061,-0.048391,-0.019183,2.670269,0.010939057774781154,0.039380607989212155,-0.7198128486593488,1.4546217983324317,1.622977237449424,0.07498050506806342,0,0,0,0,0,2.670269,1.4999999999876223e-05,0
1970-01-18 21:45:31.021702869,51.762042,-1.262751,65.187936,-0.007899,-0.006127,-0.007536,-0.048391,-0.019182,2.670198,0.009996715960754311,0.03598817745871552,3.146289978891351,3.6214848087716,4.797321424653096,-0.3551456096985273,0,0,1,0,1,2.670198,7.099999999971018e-05,1
1970-01-18 21:45:31.021902504,51.762042,-1.262751,65.189481,-0.008055,-0.006206,-0.007548,-0.048394,-0.019184,2.670186,0.010168454208973948,0.036606435152306216,-0.7814261026373125,-0.39572219300222944,0.8759125572324177,-0.060109700202374224,0,0,0,0,0,2.670186,1.1999999999900979e-05,0
1970-01-18 21:45:31.022102555,51.762042,-1.262751,65.190982,-0.008712,-0.007042,-0.007167,-0.048394,-0.01918,2.670176,0.01120217425324209,0.040327827311671526,-3.284162538552667,-4.178934371735207,5.314999159257001,-0.04998725325074862,0,0,0,0,0,2.670176,1.0000000000065512e-05,0
1970-01-18 21:45:31.022302607,51.762042,-1.262751,65.192432,-0.009207,-0.007271,-0.007011,-0.048378,-0.019179,2.670181,0.011731849385327106,0.04223465778717758,-2.4743566672665143,-1.144702377381881,2.726313343992209,0.024993501688614517,0,0,0,0,0,2.670181,4.999999999810711e-06,0
1970-01-18 21:45:31.022502659,51.762042,-1.262751,65.193824,-0.009192,-0.007103,-0.006745,-0.048385,-0.019176,2.670191,0.011616603333160688,0.041819771999378474,0.07498050506867909,0.8397816567692388,0.8431223559996744,0.049987003379448905,0,0,0,0,0,2.670191,1.0000000000065512e-05,0
1970-01-18 21:45:31.022702711,51.762042,-1.262751,65.188292,-0.007704,-0.005608,-0.005061,-0.048394,-0.019176,2.670207,0.009528970563497403,0.03430429402859065,7.438066102813272,7.473057005178653,10.543785295256612,0.07997920540667428,0,1,0,0,1,2.670207,1.6000000000016e-05,0
1970-01-18 21:45:31.022902544,51.762042,-1.262751,65.189316,-0.007696,-0.006299,-0.005031,-0.048403,-0.019182,2.670195,0.009945140371055605,0.03580250533580018,0.04003342791230775,-3.4578873359254967,3.458119070145552,-0.06005014186796464,0,0,0,0,0,2.670195,1.1999999999900979e-05,0
1970-01-18 21:45:31.023102595,51.762042,-1.262751,65.190333,-0.007838,-0.007059,-0.00457,-0.048393,-0.019181,2.670198,0.010548162162196787,0.03797338378390844,-0.7098189961559791,-3.799031247032008,3.864774433680374,0.014996175975002598,0,0,0,0,0,2.670198,2.9999999999752447e-06,0
1970-01-18 21:45:31.023302647,51.762042,-1.262751,65.191226,-0.008503,-0.007105,-0.00456,-0.048394,-0.019187,2.670199,0.011080705482955496,0.03989053973863979,-3.3241357247115784,-0.22994021554395874,3.3320790535382216,0.004998700338610851,0,0,0,0,0,2.670199,1.000000000139778e-06,0
1970-01-18 21:45:31.023502699,51.762042,-1.262751,65.192179,-0.008645,-0.007147,-0.005263,-0.048387,-0.019189,2.670204,0.011216756839657352,0.040380324622766466,-0.7098154479835231,-0.20994541419230753,0.7402128390783486,0.024993501688614517,0,0,0,0,0,2.670204,4.999999999810711e-06,0
1970-01-18 21:45:31.023702751,51.762042,-1.262751,65.188065,-0.007866,-0.006311,-0.003908,-0.048398,-0.019182,2.670201,0.010084774514088056,0.036305188250717005,3.8939875632335603,4.1789134824945515,5.711957373509748,-0.014996101013612685,0,1,0,0,1,2.670201,2.9999999999752447e-06,0
1970-01-18 21:45:31.023902709,51.762042,-1.262751,65.188883,-0.007927,-0.007056,-0.003861,-0.048395,-0.019183,2.670195,0.010612467432223289,0.03820488275600384,-0.30506406345332665,-3.7257824143070044,3.738250751564157,-0.030006301323030282,0,0,0,0,0,2.670195,5.999999999950489e-06,0
1970-01-18 21:45:31.024102660,51.762042,-1.262751,65.189629,-0.008846,-0.007616,-0.00348,-0.048384,-0.01919,2.670194,0.011672839071965311,0.04202222065907512,-4.596126050882464,-2.80068616811119,5.38221308458238,-0.0050012253008976095,1,0,0,0,1,2.670194,1.000000000139778e-06,0
1970-01-18 21:45:31.024302596,51.762042,-1.262751,65.190288,-0.009386,-0.007472,-0.003361,-0.048382,-0.019192,2.670196,0.011996990455943525,0.043189165641396694,-2.7008642765685047,0.7202304737516007,2.795245924022494,0.010003201023504854,0,0,0,0,0,2.670196,1.9999999998354667e-06,0
1970-01-18 21:45:31.024502647,51.762042,-1.262751,65.190927,-0.009334,-0.007745,-0.003006,-0.04838,-0.019195,2.670194,0.012128832631378834,0.043663797472963804,0.25993371690218975,-1.3646520137364961,1.389187048520703,-0.009997450649261773,0,0,0,0,0,2.670194,1.9999999998354667e-06,0
1970-01-18 21:45:31.024702699,51.762042,-1.262751,65.188515,-0.007976,-0.006666,-0.002438,-0.04839,-0.019181,2.670201,0.010394812744826143,0.03742132588137412,6.788235058884689,5.393597664607203,8.670122893150218,0.03499090236583622,0,1,0,0,1,2.670201,7.000000000090267e-06,0
1970-01-18 21:45:31.024902751,51.762042,-1.262751,65.189009,-0.008059,-0.007218,-0.002545,-0.048396,-0.019178,2.670197,0.010818826415096973,0.0389477750943491,-0.4148921280467066,-2.7592825865275006,2.790300319003139,-0.019994801352223538,0,0,0,0,0,2.670197,4.000000000115023e-06,0
1970-01-18 21:45:31.025102803,51.762042,-1.262751,65.189505,-0.008346,-0.008329,-0.002418,-0.048387,-0.019181,2.670198,0.011791011703836105,0.04244764213380998,-1.4346269969807803,-5.553556075420391,5.735864337944617,0.004998700338610851,0,0,0,0,0,2.670198,1.000000000139778e-06,0
1970-01-18 21:45:31.025302854,51.762042,-1.262751,65.190009,-0.008895,-0.008693,-0.002726,-0.04839,-0.019174,2.670201,0.012437414281111649,0.04477469141200194,-2.744300203448125,-1.8195360183153284,3.2927032858416228,0.014996175975002598,0,0,0,0,0,2.670201,2.9999999999752447e-06,0
1970-01-18 21:45:31.025502906,51.762042,-1.262751,65.190487,-0.008897,-0.00935,-0.002583,-0.048387,-0.019167,2.670214,0.012906552948018306,0.0464635906128659,-0.009997400675825613,-3.2841461220082846,3.284161338716831,0.0649831043930616,0,0,0,0,0,2.670214,1.3000000000040757e-05,0
1970-01-18 21:45:31.025702958,51.762042,-1.262751,65.187274,-0.007632,-0.007783,-0.001639,-0.048398,-0.019173,2.67018,0.010900573975713389,0.0392420663125682,6.323355927458864,7.8329634295083315,10.066784306487552,-0.1699558114883504,0,1,0,0,1,2.67018,3.399999999986747e-05,0
1970-01-18 21:45:31.025903010,51.762042,-1.262751,65.187684,-0.008478,-0.009196,-0.002198,-0.048408,-0.019181,2.670166,0.012507713620002657,0.045027769032009564,-4.2289004858736705,-7.0631635774698545,8.232367766415646,-0.06998180473167244,1,0,0,0,1,2.670166,1.4000000000180535e-05,0
1970-01-18 21:45:31.026103061,51.762042,-1.262751,65.188205,-0.008942,-0.010208,-0.002511,-0.048392,-0.019185,2.670158,0.013570653189879992,0.048854351483567975,-2.3194085508195452,-5.058710028942623,5.565087886326639,-0.039989802601486844,0,0,0,0,0,2.670158,8.000000000230045e-06,0
1970-01-18 21:45:31.026302677,51.762042,-1.262751,65.188718,-0.009528,-0.011391,-0.002427,-0.048365,-0.019191,2.670162,0.014850510597282505,0.053461838150217024,-2.9356364219301043,-5.926378647002244,6.613616640644265,0.020038473870406293,0,0,0,0,0,2.670162,4.000000000115023e-06,0
1970-01-18 21:45:31.026502728,51.762042,-1.262751,65.189207,-0.009304,-0.011315,-0.001888,-0.04839,-0.019194,2.670174,0.014649015018082273,0.05273645406509619,1.1197144728094348,0.3799031247031991,1.1824072415112168,0.05998470390001039,0,0,0,0,0,2.670174,1.1999999999900979e-05,0
1970-01-18 21:45:31.026702558,51.762042,-1.262751,65.187217,-0.007949,-0.010686,-0.001644,-0.048381,-0.019189,2.670129,0.013318303082600274,0.047945891097360985,6.780763649101738,3.147675524195572,7.475735206024848,-0.22519141269893747,0,1,1,0,1,2.670129,4.499999999962867e-05,1
1970-01-18 21:45:31.026902609,51.762042,-1.262751,65.187635,-0.00772,-0.010866,-0.001904,-0.048402,-0.019199,2.670124,0.013329229385076994,0.04798522578627718,1.14470809943464,-0.8997705585075872,1.456002641092495,-0.02499362662648425,0,0,0,0,0,2.670124,5.000000000254801e-06,0
1970-01-18 21:45:31.027102661,51.762042,-1.262751,65.188093,-0.008217,-0.011985,-0.002639,-0.048378,-0.019204,2.670111,0.014531321825628942,0.05231275857226419,-2.4843540679423355,-5.593545678123689,6.120438578088815,-0.0649831043930616,0,0,0,0,0,2.670111,1.3000000000040757e-05,0
1970-01-18 21:45:31.027302713,51.762042,-1.262751,65.188676,-0.008625,-0.012007,-0.003128,-0.048389,-0.019206,2.670119,0.014783730043530964,0.05322142815671147,-2.0394697378681563,-0.1099714074340644,2.042432501242828,0.039989602704447076,0,0,0,0,0,2.670119,8.000000000230045e-06,0
1970-01-18 21:45:31.027502764,51.762042,-1.262751,65.189321,-0.009337,-0.012081,-0.002995,-0.04838,-0.019215,2.670128,0.015268599477358754,0.05496695811849152,-3.5590924314299808,-0.36990567405311353,3.5782634256240637,0.04498852792500779,1,0,0,0,1,2.670128,8.999999999925734e-06,0
1970-01-18 21:45:31.027702816,51.762042,-1.262751,65.186511,-0.006795,-0.011603,-0.00268,-0.048391,-0.019212,2.670085,0.013446249811750488,0.04840649932230176,12.706696258972668,2.389378761522001,12.929395217248269,-0.2149441145314083,0,1,1,0,1,2.670085,4.300000000023729e-05,1
1970-01-18 21:45:31.027902868,51.762042,-1.262751,65.187053,-0.007708,-0.010597,-0.003824,-0.048436,-0.019183,2.670061,0.013103803760740619,0.047173693538666225,-4.563813408513785,5.028692539939616,6.790886649692702,-0.11996880810890148,1,0,0,0,1,2.670061,2.3999999999801958e-05,0
1970-01-18 21:45:31.028102209,51.762042,-1.262751,65.187623,-0.018246,-0.00739,0.001628,-0.048441,-0.019098,2.669996,0.019685746518737862,0.07086868746745631,-52.86418749780527,16.088009992926697,55.257998383361844,-0.32607441519909997,1,0,1,0,1,2.669996,6.500000000020378e-05,1
1970-01-18 21:45:31.028302260,51.762042,-1.262751,65.186943,-0.083623,0.026316,0.003276,-0.048904,-0.018444,2.669921,0.08766605948142074,0.31559781413311466,-326.8016655752783,168.4870358058695,367.6781335045972,-0.3749043993772848,1,0,1,0,1,2.669921,7.49999999998252e-05,1
1970-01-18 21:45:31.028502312,51.762041,-1.262751,65.186929,-0.159263,0.067642,-0.003288,-0.04922,-0.018322,2.669809,0.1730322031675029,0.6229159314030105,-378.10169355967446,206.5762901645572,430.85340236656515,-0.55985443784672,1,0,1,0,1,2.669809,0.00011200000000011201,1
1970-01-18 21:45:31.028702363,51.762042,-1.262752,65.184203,-0.248701,0.111667,0.010893,-0.050253,-0.017679,2.669639,0.2726200768285417,0.9814322765827502,-447.0759956211167,220.06888243497912,498.3043837623681,-0.8497833052560669,1,0,1,0,1,2.669639,0.00016999999999978144,1
1970-01-18 21:45:31.028902360,51.762042,-1.262751,65.181874,-0.433617,0.211668,0.013048,-0.051786,-0.015839,2.669759,0.4825215486514566,1.7370775751452436,-924.5938689080335,500.0125001875028,1051.1357299445601,0.6000090001344919,1,0,1,0,1,2.669759,0.00011999999999989797,1
1970-01-18 21:45:31.029102411,51.762041,-1.26275,65.181806,-0.646045,0.316006,-0.003825,-0.05347,-0.016084,2.670569,0.7191897761098943,2.5890831939956196,-1061.8692233480463,521.5570029642441,1183.0418229440697,4.0489675132839995,1,0,1,0,1,2.670569,0.0008099999999999774,1
1970-01-18 21:45:31.029302383,51.762039,-1.262749,65.181081,-0.874084,0.437689,0.010012,-0.054665,-0.015328,2.673702,0.9775451395086572,3.519162502231166,-1140.3546496509512,608.5001900266036,1292.5483388419004,15.667193407077253,1,0,1,0,1,2.673702,0.0031330000000000524,1
1970-01-18 21:45:31.029502434,51.762038,-1.262748,65.180396,-1.11418,0.544206,0.002635,-0.053286,-0.01384,2.679776,1.239982759088206,4.463937932717542,-1200.1739556413113,532.4492254475108,1312.9812266286851,30.362257624305368,1,0,1,0,1,2.679776,0.006073999999999913,1
1970-01-18 21:45:31.029702486,51.762036,-1.262746,65.17735,-1.38567,0.673734,0.015857,-0.051719,-0.012098,2.687467,1.5407786510904156,5.546803143925496,-1357.0971547397678,647.4716573690845,1503.6396624520924,38.445004298881756,1,0,1,0,1,2.687467,0.007690999999999892,1
1970-01-18 21:45:31.029902537,51.762038,-1.262746,65.918008,-1.689393,0.814537,0.031067,-0.052126,-0.010009,2.696881,1.8755050607284427,6.751818218622394,-1518.227851897766,703.8355219419043,1673.4396470220663,47.058000209946634,1,0,1,0,1,2.696881,0.009414000000000033,1
1970-01-18 21:45:31.030102210,51.762034,-1.262744,65.916037,-1.995714,0.933918,-0.005276,-0.053111,-0.008901,2.708303,2.203423972030803,7.9323262993108905,-1534.1132752049602,597.8825379495478,1646.501463815044,57.20352776790073,1,0,1,0,1,2.708303,0.011422000000000043,1
1970-01-18 21:45:31.030302208,51.762031,-1.262741,65.912825,-2.330252,1.043369,0.03117,-0.052611,-0.007002,2.721068,2.5531731734578837,9.191423424448383,-1672.7067270672717,547.2604726047258,1759.955061827333,63.82563825638214,1,0,1,0,1,2.721068,0.012764999999999915,1
1970-01-18 21:45:31.030502259,51.762026,-1.262738,65.903775,-2.653868,1.159874,0.055547,-0.049386,-0.003086,2.733937,2.896260184669188,10.426536664809078,-1617.6674947888284,582.3764939940319,1719.3052388837605,64.32859620796818,1,0,1,0,1,2.733937,0.012869000000000241,1
1970-01-18 21:45:31.030702311,51.762021,-1.262734,65.898838,-2.987019,1.243224,-0.030259,-0.05261,-0.001341,2.749652,3.2354116307723504,11.647481870780462,-1665.3220162757682,416.6416731649773,1716.6501395772236,78.55457581029006,1,0,1,0,1,2.749652,0.015715000000000146,1
1970-01-18 21:45:31.030902362,51.762019,-1.262732,66.524913,-3.343236,1.352121,-9.9e-05,-0.0494,-0.003851,2.763874,3.6063081052978543,12.982709179072275,-1780.630939110527,544.3461917211101,1861.9772602690164,71.09187157274762,1,0,1,0,1,2.763874,0.014221999999999735,1
1970-01-18 21:45:31.031102414,51.762013,-1.262728,66.52292,-3.735735,1.41811,0.020756,-0.042491,-0.002949,2.774454,3.995841833997562,14.385030602391224,-1961.9848839301778,329.8592365984848,1989.5204951796422,52.88624957511065,1,0,1,0,1,2.774454,0.010580000000000034,1
1970-01-18 21:45:31.031302122,51.762006,-1.262724,66.523026,-4.099451,1.595027,-0.01075,-0.045065,-0.000366,2.78079,4.398819117914488,15.835748824492159,-1821.2390089530722,885.87838243836,2025.2634485922995,31.72632042782522,1,0,1,0,1,2.78079,0.006336000000000119,1
1970-01-18 21:45:31.031502173,51.761998,-1.262719,66.518001,-4.516264,1.66262,0.047247,-0.04612,0.001823,2.785448,4.81258202860959,17.325295302994526,-2083.533698906776,337.8788408955717,2110.7521847922094,23.284062564046422,1,0,1,0,1,2.785448,0.004658000000000051,1
1970-01-18 21:45:31.031702225,51.76199,-1.262714,66.511777,-4.883676,1.803046,-0.038999,-0.037302,0.001948,2.785878,5.205887642956963,18.741195514645067,-1836.58248855298,701.9474936516503,1966.1550094291372,2.149441145300764,1,0,1,0,1,2.785878,0.0004299999999997084,1
1970-01-18 21:45:31.031902276,51.761983,-1.26271,67.048777,-5.243936,1.969787,-0.000314,-0.037157,0.000995,2.786401,5.60168953062065,20.16608231023434,-1800.8407855996688,833.4924594228473,1984.3732549583456,2.6143333449983914,1,0,1,0,1,2.786401,0.0005230000000002732,1
1970-01-18 21:45:31.032102115,51.761973,-1.262704,67.049257,-5.597745,2.127978,0.02974,-0.042626,0.004655,2.783645,5.988575744992209,21.558872681971955,-1770.4702285339702,791.592231746557,1939.3769853967597,-13.791101836979783,1,0,1,0,1,2.783645,0.0027560000000002027,1
1970-01-18 21:45:31.032302166,51.761963,-1.262698,67.049173,-5.922002,2.23008,-0.034532,-0.042595,0.00619,2.779784,6.327982655981605,22.780737561533776,-1620.871677722182,510.3798531374495,1699.3270992161943,-19.300078479988176,1,0,1,0,1,2.779784,0.0038610000000001143,1
1970-01-18 21:45:31.032502217,51.761952,-1.262691,67.059894,-6.201143,2.404977,-0.071798,-0.041028,0.003873,2.776002,6.6511719927376705,23.944219173855615,-1395.3491859575813,874.2620631738911,1646.6127370628326,-18.905179179307925,1,0,1,0,1,2.776002,0.00378199999999973,1
1970-01-18 21:45:31.032702269,51.761941,-1.262684,67.068167,-6.481383,2.552268,-0.028969,-0.046204,-0.000676,2.772281,6.9658020023908955,25.076887208607225,-1400.835782696499,736.2635714714178,1582.5374993215046,-18.60016395737151,1,0,1,0,1,2.772281,0.0037210000000000854,1
1970-01-18 21:45:31.032902146,51.761931,-1.262677,67.5258,-6.778488,2.665871,0.011642,-0.045435,-0.00085,2.766246,7.283870382892944,26.2219333784146,-1486.4391600834522,568.3645441946792,1591.3954982113103,-30.193569044961606,1,0,1,0,1,2.766246,0.0060349999999997905,1
1970-01-18 21:45:31.033102197,51.761918,-1.262669,67.517834,-7.039087,2.831975,-0.025028,-0.039188,0.007357,2.76011,7.587412483461935,27.314684940462968,-1302.6628209806502,830.3082713907944,1544.7790297337788,-30.67217859445912,1,0,1,0,1,2.76011,0.006136000000000141,1
1970-01-18 21:45:31.033302248,51.761906,-1.262661,67.526934,-7.272613,2.998835,-0.094459,-0.037993,0.005774,2.753714,7.866632774255704,28.319877987320535,-1167.3323302557822,834.0873077365284,1434.7008072025208,-31.971847178969703,1,0,1,0,1,2.753714,0.006396000000000068,1
1970-01-18 21:45:31.033502300,51.761892,-1.262652,67.543994,-7.496393,3.146252,-0.064445,-0.038959,0.005307,2.747273,8.1298714416621,29.26753718998356,-1118.609161617982,736.893407713994,1339.514221943174,-32.19662887649282,1,0,1,0,1,2.747273,0.006441000000000141,1
1970-01-18 21:45:31.033702351,51.76188,-1.262643,67.930472,-7.686638,3.267484,-0.078996,-0.037128,0.004542,2.744457,8.3522964167527,30.068267100309722,-950.9824994626371,606.0054686055056,1127.6570144613934,-14.076410515317132,1,0,1,0,1,2.744457,0.0028159999999997076,1
1970-01-18 21:45:31.033902403,51.761866,-1.262634,67.946877,-7.89222,3.340335,-0.070628,-0.037236,0.001782,2.744258,8.57000434309254,30.852015635133146,-1027.6428128686528,364.1603183172375,1090.2579916136863,-0.9947413672459275,1,0,1,0,1,2.744258,0.00019900000000028228,1
1970-01-18 21:45:31.034102454,51.761852,-1.262624,67.957417,-8.080545,3.412999,-0.082577,-0.034937,0.001766,2.741428,8.771759781881057,31.578335214771805,-941.3849468385599,363.2273770188605,1009.0291103581897,-14.146392669868625,1,0,1,0,1,2.741428,0.002829999999999888,1
1970-01-18 21:45:31.034302506,51.761837,-1.262614,67.968019,-8.226673,3.535442,-0.066451,-0.034108,-0.002859,2.740029,8.954188895946578,32.23508002540768,-730.4500829784214,612.0558654749769,952.9793839247026,-6.993181772739839,1,0,1,0,1,2.740029,0.0013990000000001501,1
1970-01-18 21:45:31.034502557,51.761822,-1.262604,67.970128,-8.385453,3.610646,0.021085,-0.029189,-0.00488,2.736749,9.129763773095391,32.86714958314341,-793.6976071101876,375.9241393444663,878.2225515632786,-16.395819066136774,1,0,1,0,1,2.736749,0.0032799999999997276,1
1970-01-18 21:45:31.034702609,51.761808,-1.262594,68.31036,-8.520811,3.697208,0.011072,-0.024938,-0.001246,2.732658,9.288356533477007,33.438083520517225,-676.6140803391123,432.69749865035,803.1399249516937,-20.44968308240002,1,0,1,0,1,2.732658,0.004091000000000289,1
1970-01-18 21:45:31.034902660,51.761792,-1.262583,68.320771,-8.59025,3.788684,-0.039624,-0.023117,-0.006537,2.728691,9.388637894516755,33.79909642026032,-347.1064878455951,457.26339783355303,574.0842524427843,-19.829943364441228,1,0,1,0,1,2.728691,0.003966999999999832,1
1970-01-18 21:45:31.035102712,51.761777,-1.262572,68.323392,-8.660637,3.847141,0.00495,-0.025598,-0.005459,2.724841,9.476662235178058,34.11598404664101,-351.843520684623,292.2090256533312,457.3619766891646,-19.244996300961297,1,0,1,0,1,2.724841,0.003849999999999909,1
1970-01-18 21:45:31.035302763,51.761761,-1.262561,68.326277,-8.716227,3.920258,-0.016636,-0.026596,-0.00866,2.721951,9.557250436296675,34.40610157066803,-277.8791408190935,365.49179959110364,459.1307792674121,-14.446316189373116,1,0,1,0,1,2.721951,0.0028900000000002812,1
1970-01-18 21:45:31.035502815,51.761745,-1.262549,68.326004,-8.78625,3.979534,0.028317,-0.026826,-0.012607,2.718175,9.645459031049587,34.72365251177851,-350.0239937616262,296.3029612300807,458.5981258602717,-18.87509247595515,1,0,1,0,1,2.718175,0.0037759999999997795,1
1970-01-18 21:45:31.035702866,51.76173,-1.262537,68.315965,-8.849352,4.050201,0.045201,-0.029134,-0.013274,2.715446,9.732171338416983,35.035816818301136,-315.4295654608019,353.2449225447524,473.57975682078984,-13.641521412039838,1,0,1,0,1,2.715446,0.0027289999999999814,1
1970-01-18 21:45:31.035902809,51.761714,-1.262526,68.590277,-8.925355,4.08594,0.069466,-0.026063,-0.012836,2.713754,9.816153399352773,35.33815223766998,-380.1233351505181,178.74594259363678,420.0522133254874,-8.462411787358421,1,0,1,0,1,2.713754,0.0016919999999998048,1
1970-01-18 21:45:31.036102815,51.761698,-1.262514,68.57859,-8.975497,4.134764,0.054841,-0.031396,-0.008549,2.712055,9.882095918007728,35.57554530482782,-250.70247892563734,244.1126766197002,349.91817875882634,-8.494745157646966,1,0,1,0,1,2.712055,0.0016990000000003391,1
1970-01-18 21:45:31.036302820,51.761682,-1.262502,68.57607,-8.993741,4.181775,-0.003581,-0.031635,-0.012286,2.710173,9.918398022145814,35.70623287972493,-91.21771955700737,235.0491237719075,252.12846516631623,-9.409764755879689,1,0,1,0,1,2.710173,0.0018819999999997172,1
1970-01-18 21:45:31.036502871,51.761666,-1.26249,68.569211,-9.008622,4.183384,0.055896,-0.030364,-0.011032,2.708794,9.932571269834414,35.75725657140389,-74.38603156195575,8.04294904799373,74.81958781579127,-6.893242223233171,1,0,1,0,1,2.708794,0.001379000000000019,1
1970-01-18 21:45:31.036702922,51.76165,-1.262478,68.847008,-8.930237,4.162341,-0.027088,-0.027253,-0.015547,2.707736,9.852624801363847,35.46944928490985,391.8250846034302,-105.18817701486415,405.69871765658274,-5.288651393894574,0,1,1,0,1,2.707736,0.0010580000000000034,1
1970-01-18 21:45:31.036902974,51.761634,-1.262466,68.842,-8.822744,4.131101,0.079487,-0.02888,-0.016695,2.705851,9.742012480064732,35.071244928233035,537.3252954231892,-156.1593985563728,559.5571738965606,-9.422550136965073,0,1,1,0,1,2.705851,0.0018850000000001366,1
1970-01-18 21:45:31.037103025,51.761619,-1.262454,68.827691,-8.745697,4.118467,0.048582,-0.028245,-0.011354,2.704734,9.666901594921612,34.8008457417178,385.13679011852133,-63.15389575658335,390.28036288292975,-5.583576188071105,0,1,1,0,1,2.704734,0.0011169999999998126,1
1970-01-18 21:45:31.037302893,51.761603,-1.262442,68.825751,-8.718281,4.118482,0.00153,-0.029089,-0.01663,2.703603,9.642111676354148,34.711602034874936,137.17053255148673,0.07504953269317906,137.17055308225173,-5.658734764944829,0,1,1,0,1,2.703603,0.0011309999999999931,1
1970-01-18 21:45:31.037502944,51.761587,-1.26243,68.813284,-8.709184,4.129202,0.088945,-0.029962,-0.016624,2.703212,9.63847472905646,34.698509024603254,45.47340428190212,53.58633548445178,70.28033756064018,-1.9545016020916177,0,1,1,0,1,2.703212,0.0003910000000000302,1
1970-01-18 21:45:31.037702995,51.761572,-1.262419,69.065371,-8.729882,4.107741,0.090012,-0.028852,-0.011068,2.703383,9.648024453586599,34.73288803291176,-103.46361677771888,-107.27764420073079,149.04097739207583,0.8547820305818077,1,0,1,0,1,2.703383,0.00017099999999992122,1
1970-01-18 21:45:31.037903047,51.761556,-1.262407,69.057346,-8.742739,4.114942,0.023034,-0.02841,-0.009312,2.703133,9.662723885400275,34.785805987440995,-64.26829024453812,35.99564113330652,73.66206154835731,-1.249675084479563,1,0,1,0,1,2.703133,0.00025000000000030553,1
1970-01-18 21:45:31.038102891,51.76154,-1.262395,69.054524,-8.741427,4.133067,0.020893,-0.028171,-0.009984,2.70276,9.669270335595028,34.809373208142105,6.565120794221613,90.69574267928736,90.93304433037656,-1.8664558355504026,0,1,1,0,1,2.70276,0.00037299999999973465,1
1970-01-18 21:45:31.038302654,51.761525,-1.262383,69.04939,-8.754141,4.129561,0.021786,-0.024067,-0.009333,2.702953,9.679269533420484,34.84537032031375,-63.64541982249356,-17.55079769526783,66.02098124173614,0.9661448816842344,1,0,1,0,1,2.702953,0.0001929999999998877,1
1970-01-18 21:45:31.038502705,51.761509,-1.262371,69.053252,-8.770838,4.127307,0.03953,-0.026316,-0.021082,2.702905,9.693413345901071,34.89628804524386,-83.46371675222244,-11.267126882643707,84.22078224693006,-0.23993881560226143,1,0,1,0,1,2.702905,4.8000000000048004e-05,1
1970-01-18 21:45:31.038702756,51.761493,-1.26236,69.257468,-8.796283,4.143605,0.182932,-0.025765,-0.018877,2.703684,9.723376831744927,35.00415659428174,-127.19256589570296,81.469225347536,151.04695792322445,3.894007028208233,1,0,1,0,1,2.703684,0.0007790000000000852,1
1970-01-18 21:45:31.038902764,51.761477,-1.262347,69.231826,-8.810386,4.135662,0.084819,-0.03567,-0.012809,2.703335,9.732759200105589,35.03793312038012,-70.51217951281271,-39.713411463541625,80.92664894655952,-1.7449302027915519,1,0,1,0,1,2.703335,0.0003489999999999327,1
1970-01-18 21:45:31.039102815,51.761462,-1.262335,69.227132,-8.786239,4.180982,0.013295,-0.043041,-0.018991,2.703675,9.730293225255085,35.029055610918306,120.7042204237882,226.54223173090986,256.6922117745993,1.6995666105143536,0,1,1,0,1,2.703675,0.00034000000000000696,1
1970-01-18 21:45:31.039302866,51.761446,-1.262323,69.209094,-8.780133,4.138128,0.156237,-0.04173,-0.010231,2.704656,9.706432858783549,34.943158291620776,30.522216834711312,-214.21537507935562,216.37890988008547,4.903749543865807,0,1,1,0,1,2.704656,0.0009809999999998986,1
1970-01-18 21:45:31.039502918,51.76143,-1.262311,69.201312,-8.744267,4.128113,-0.047467,-0.046555,-0.014384,2.703398,9.66972193540528,34.81099896745901,179.28338631955003,-50.061983884190646,186.14170634391957,-6.288365025093383,0,1,1,0,1,2.703398,0.0012579999999999814,1
1970-01-18 21:45:31.039702969,51.761414,-1.2623,69.429579,-8.722968,4.139494,0.144528,-0.046209,-0.02131,2.703118,9.655339523033874,34.75922228292195,106.46785069807622,56.89049292430473,120.71425523706061,-1.3996430910120818,0,1,1,0,1,2.703118,0.000280000000000058,1
1970-01-18 21:45:31.039902781,51.761399,-1.262288,69.397573,-8.713314,4.135181,0.120672,-0.039086,-0.011531,2.699312,9.64476867350156,34.721167224605615,48.31541649149894,-21.58529017276134,52.91790077647936,-19.047905030728764,0,1,1,0,1,2.699312,0.003805999999999976,1
1970-01-18 21:45:31.040102702,51.761383,-1.262276,69.385836,-8.717121,4.153064,-0.024399,-0.032253,-0.016253,2.6964,9.655886241911563,34.76119047088163,-19.04252179611004,89.45033288148532,91.4547958773287,-14.565753472620703,1,0,1,0,1,2.6964,0.0029119999999998036,1
1970-01-18 21:45:31.040302669,51.761367,-1.262264,69.378135,-8.722774,4.213078,0.13209,-0.032396,-0.024911,2.693657,9.68694030585303,34.87298510107091,-28.269664494635602,300.1195197207573,301.4480055466569,-13.717263348453304,1,0,1,0,1,2.693657,0.002743000000000162,1
1970-01-18 21:45:31.040502720,51.761352,-1.262252,69.342612,-8.736341,4.258979,0.20286,-0.0363,-0.019063,2.691723,9.71918495506295,34.98906583822662,-67.8177064848469,229.44649114475683,239.25913485488036,-9.66753477863085,1,0,1,0,1,2.691723,0.0019339999999998803,1
1970-01-18 21:45:31.040702462,51.761336,-1.26224,69.546752,-8.763919,4.259566,0.09117,-0.040457,-0.013251,2.692779,9.744238233280065,35.07925763980823,-138.0681078591388,2.9387910404438586,138.09938052207974,5.286819997795775,1,0,1,0,1,2.692779,0.0010559999999997238,1
1970-01-18 21:45:31.040902513,51.76132,-1.262227,69.533047,-8.794576,4.254914,0.036236,-0.040571,-0.010399,2.695017,9.769793250994208,35.17125570357915,-153.24592228981467,-23.25407021209642,155.00020799948956,11.187147277445172,1,0,1,0,1,2.695017,0.0022380000000001843,1
1970-01-18 21:45:31.041102564,51.761304,-1.262215,69.528135,-8.836183,4.247097,0.058025,-0.04752,-0.006823,2.699038,9.80387489398442,35.29394961834391,-207.98196459903144,-39.075035865855135,211.6207835407256,20.099874531993493,1,0,1,0,1,2.699038,0.00402099999999983,1
1970-01-18 21:45:31.041302615,51.761288,-1.262203,69.523892,-8.89287,4.202484,-0.038181,-0.048945,-0.002272,2.704405,9.835853222123438,35.40907159964438,-283.3627425006631,-223.0081329261039,360.59266657640717,26.828158819501635,1,0,1,0,1,2.704405,0.005367000000000122,1
1970-01-18 21:45:31.041502667,51.761272,-1.262191,69.535382,-8.956951,4.163028,-0.038005,-0.043203,-0.017474,2.710161,9.87713386287667,35.55768190635602,-320.3217163537472,-197.22872053266343,376.17172962725675,28.772519145021658,1,0,1,0,1,2.710161,0.005755999999999872,1
1970-01-18 21:45:31.041702718,51.761256,-1.262179,69.714342,-9.027815,4.141522,0.187329,-0.033682,-0.007872,2.712864,9.93245428636392,35.75683543091011,-354.2296714337857,-107.50258684035362,370.1830173055695,13.511554553590555,1,0,1,0,1,2.712864,0.002703000000000344,1
1970-01-18 21:45:31.041902637,51.76124,-1.262167,69.700434,-9.062013,4.138185,-0.071827,-0.030954,-0.001382,2.716784,9.962161146377527,35.8637801269591,-171.059279007998,-16.691760162866686,171.8717306367477,19.607941216192174,1,0,1,0,1,2.716784,0.0039199999999999235,1
1970-01-18 21:45:31.042102688,51.761223,-1.262155,69.718791,-9.118233,4.1283,-0.037146,-0.033321,-0.013449,2.720405,10.009247420874809,36.03329071514931,-281.0283377738662,-49.412399838039796,285.33929257937217,18.100384401976868,1,0,1,0,1,2.720405,0.0036209999999998743,1
1970-01-18 21:45:31.042302692,51.761207,-1.262143,69.707748,-9.17747,4.119939,0.126593,-0.036803,-0.009984,2.723021,10.059813763913375,36.21532955008815,-296.1790764184693,-41.804163916725315,299.1147496010083,13.079738405232765,1,0,1,0,1,2.723021,0.0026160000000001737,1
1970-01-18 21:45:31.042502743,51.76119,-1.262132,69.690734,-9.217646,4.119641,0.012914,-0.040636,0.000528,2.724154,10.09635774674199,36.34688788827117,-200.82878865889526,-1.4896201468620973,200.83431311003892,5.6635557932718585,1,0,1,0,1,2.724154,0.0011329999999998286,1
1970-01-18 21:45:31.042702794,51.761173,-1.26212,69.900399,-9.258066,4.11939,-0.105871,-0.035756,-0.006607,2.726779,10.13317127223536,36.4794165800473,-202.04847763819842,-1.254680056583357,202.0523732549508,13.121653978236047,1,0,1,0,1,2.726779,0.0026250000000000995,1
1970-01-18 21:45:31.042902845,51.761157,-1.262108,69.907049,-9.322953,4.09523,0.070071,-0.029964,-0.012799,2.728048,10.182748223986932,36.65789360635296,-324.35229016601056,-120.76920385301838,346.1063546588358,6.343382437477156,1,0,1,0,1,2.728048,0.0012689999999997426,1
1970-01-18 21:45:31.043102508,51.76114,-1.262097,69.889216,-9.363652,4.120055,0.069807,-0.027081,-0.010742,2.729249,10.229996675470085,36.82798803169231,-203.838467818274,124.33450363863048,238.76597277997163,6.015135503323138,1,0,1,0,1,2.729249,0.0012010000000000076,1
1970-01-18 21:45:31.043302559,51.761123,-1.262085,69.87739,-9.39048,4.118471,0.036978,-0.026601,-0.010117,2.729882,10.25392207929439,36.91411948545981,-134.1058030202302,-7.917980914863528,134.33934950515777,3.164193130752187,1,0,1,0,1,2.729882,0.0006330000000001057,1
1970-01-18 21:45:31.043502610,51.761106,-1.262073,69.86855,-9.398773,4.113107,0.028751,-0.021995,-0.008293,2.729614,10.259365628486881,36.93371626255277,-41.45442912057478,-26.81316264352663,49.37018720504278,-1.3396583871098515,1,0,1,0,1,2.729614,0.0002679999999997129,1
1970-01-18 21:45:31.043702661,51.761089,-1.262062,70.109569,-9.396392,4.102989,0.013494,-0.0176,-0.001934,2.729561,10.253131294964724,36.91127266187301,11.901964998923997,-50.57710283877758,51.95863838092656,-0.2649324422287457,0,1,1,0,1,2.729561,5.3000000000302805e-05,1
1970-01-18 21:45:31.043902712,51.761072,-1.262051,70.113021,-9.373053,4.097805,-0.102796,-0.009746,0.005255,2.729115,10.22966902489196,36.826808489611054,116.6652503611579,-25.9133920850176,119.50851237959372,-2.2294314949674052,0,1,1,0,1,2.729115,0.0004459999999997244,1
1970-01-18 21:45:31.044102764,51.761055,-1.262038,70.145284,-9.358586,4.107263,-0.150682,-0.012661,-0.009719,2.728326,10.220212388720942,36.79276459939539,72.3161977885739,47.27770779597066,86.39915576576733,-3.9439745666134343,0,1,1,0,1,2.728326,0.0007890000000001507,1
1970-01-18 21:45:31.044302526,51.761038,-1.262026,70.152178,-9.351255,4.137048,0.136146,-0.020568,-0.015396,2.727682,10.225513983625909,36.81185034105327,36.698671418991815,149.10243189395578,153.55236136448977,-3.2238363652740105,0,1,1,0,1,2.727682,0.0006439999999998669,1
1970-01-18 21:45:31.044502577,51.761021,-1.262014,70.124996,-9.353347,4.134648,0.061309,-0.022462,-0.003338,2.726639,10.226456580180301,36.81524368864908,-10.457333379984687,-11.996940780099752,15.914848711230729,-5.213670514019561,1,0,1,0,1,2.726639,0.0010430000000001272,1
1970-01-18 21:45:31.044702628,51.761004,-1.262002,70.282173,-9.361959,4.137952,-0.052263,-0.02019,-0.00535,2.725331,10.235669156043732,36.848408961757436,-43.04902249926856,16.515788473939015,46.10845483269232,-6.53833272515441,1,0,1,0,1,2.725331,0.0013079999999998648,1
1970-01-18 21:45:31.044902679,51.760988,-1.26199,70.286899,-9.357324,4.153147,-0.018186,-0.017229,-0.005591,2.724931,10.237584795477154,36.85530526371776,23.169091881572143,75.95563131401194,79.41073445653832,-1.9994901300166255,0,1,1,0,1,2.724931,0.00039999999999995595,1
1970-01-18 21:45:31.045102730,51.760971,-1.261978,70.288731,-9.331041,4.142257,-0.009928,-0.014438,-0.00542,2.724194,10.209143901313666,36.7529180447292,131.38149771807883,-54.43611878970785,142.21247825536526,-3.6840605645581963,0,1,1,0,1,2.724194,0.0007370000000004318,1
1970-01-18 21:45:31.045302688,51.760954,-1.261966,70.292946,-9.236674,4.121642,-0.037152,-0.009718,-0.010034,2.721616,10.114547906774678,36.412372464388845,471.93410616229454,-103.09665029656364,483.0638879709141,-12.892707468567135,0,1,1,0,1,2.721616,0.002577999999999747,1
1970-01-18 21:45:31.045502739,51.760937,-1.261954,70.292001,-9.109655,4.092075,0.031907,-0.008165,-0.009068,2.719218,9.986535536643826,35.951527931917774,634.9330920615276,-147.79731168551635,651.908027820089,-11.986943329450492,0,1,1,0,1,2.719218,0.0023979999999999,1
1970-01-18 21:45:31.045702790,51.760919,-1.261943,70.187038,-8.981281,4.066031,-0.027373,-0.009851,-0.008804,2.716911,9.858804009306706,35.49169443350414,641.7063648769607,-130.18680236539993,654.7790942247093,-11.532059324872453,0,1,1,0,1,2.716911,0.002307000000000059,1
1970-01-18 21:45:31.045902651,51.760903,-1.261931,70.192404,-8.856603,4.027658,0.007559,-0.012108,-0.01131,2.714367,9.729411372974884,35.025880942709584,623.8235573723708,-191.9984389150459,652.7014871122435,-12.728846548350504,0,1,1,0,1,2.714367,0.0025439999999998797,1
1970-01-18 21:45:31.046102597,51.760887,-1.261919,70.190072,-8.71575,4.018863,0.013351,-0.01438,-0.013831,2.708224,9.597685026883774,34.55166609678159,704.4552029047837,-43.986876456643834,705.827158871088,-30.723295289729386,0,1,1,0,1,2.708224,0.006143000000000232,1
1970-01-18 21:45:31.046302648,51.760872,-1.261908,70.184046,-8.520679,4.021711,0.041344,-0.013555,-0.018006,2.699178,9.422108574441392,33.919590867989015,975.1063478812924,14.23636972572086,975.2102665073618,-45.21846929033151,0,1,1,0,1,2.699178,0.00904600000000011,1
1970-01-18 21:45:31.046502699,51.760857,-1.261896,70.172192,-8.241581,3.986635,0.078206,-0.015327,-0.02027,2.689822,9.155157890653006,32.95856840635082,1395.134240768601,-175.3352895011755,1406.1088199387139,-46.76807414109362,0,1,1,0,1,2.689822,0.00935599999999992,1
1970-01-18 21:45:31.046702750,51.76084,-1.261885,70.083248,-7.971581,3.941312,0.090992,-0.012436,-0.017514,2.680374,8.89269609965982,32.013705958775354,1349.655837761373,-226.55722790688486,1368.539023163098,-47.2279568709974,0,1,1,0,1,2.680374,0.009447999999999901,1
1970-01-18 21:45:31.046902628,51.760826,-1.261874,70.067206,-7.724543,3.905222,0.045448,-0.008615,-0.013714,2.671903,8.655594920520079,31.160141713872285,1235.943925794734,-180.5601416864274,1249.0633900946427,-42.38085231991573,0,1,1,0,1,2.671903,0.008471000000000117,1
1970-01-18 21:45:31.047102679,51.760812,-1.261863,70.062687,-7.489744,3.860612,0.027031,-0.008449,-0.014215,2.663979,8.426184795035057,30.33426526212621,1173.6957075945622,-222.9931367501289,1194.6914049509028,-39.609899475633924,0,1,1,0,1,2.663979,0.007924000000000042,1
1970-01-18 21:45:31.047302514,51.760799,-1.261851,70.057864,-7.252214,3.814182,0.031462,-0.010029,-0.014124,2.656432,8.194058349250389,29.4986100573014,1188.6306202617138,-232.34168188755712,1211.1256782704615,-37.766157079589405,0,1,1,0,1,2.656432,0.007546999999999748,1
1970-01-18 21:45:31.047502565,51.760786,-1.26184,70.052564,-7.022516,3.748037,0.032998,-0.014519,-0.012488,2.652416,7.960120119924385,28.656432431727787,1148.1972097115233,-330.64068662491127,1194.8556800053807,-20.074880905369227,0,1,1,0,1,2.652416,0.0040160000000000196,1
1970-01-18 21:45:31.047702535,51.760772,-1.26183,69.970349,-6.827302,3.639631,0.022699,-0.015389,-0.012388,2.648314,7.736857657690557,27.852687567686004,976.2164324648697,-542.1113166975047,1116.6392446560078,-20.51307696154448,0,1,1,0,1,2.648314,0.00410200000000005,1
1970-01-18 21:45:31.047902586,51.76076,-1.26182,69.969354,-6.574689,3.564869,0.010677,-0.015449,-0.016673,2.645099,7.478958913771488,26.924252089577358,1262.7430005348647,-373.71470275079963,1316.8836563842349,-16.070901920010236,0,1,1,0,1,2.645099,0.003214999999999968,1
1970-01-18 21:45:31.048102637,51.760748,-1.261809,69.963331,-6.319063,3.449846,0.065091,-0.016849,-0.017268,2.641377,7.199444049486391,25.917998578151007,1277.8041599392172,-574.9683830623185,1401.2038084016422,-18.605255659807874,0,1,1,0,1,2.641377,0.003722000000000225,1
1970-01-18 21:45:31.048302688,51.760737,-1.2618,69.953655,-6.065013,3.330219,0.047716,-0.019548,-0.018501,2.63957,6.9191575555214815,24.908967199877335,1269.9261688269464,-597.9825144588126,1403.6721703695525,-9.032696662350562,0,1,1,0,1,2.63957,0.001806999999999892,1
1970-01-18 21:45:31.048502739,51.760726,-1.26179,69.94387,-5.824921,3.188212,0.051413,-0.020912,-0.017609,2.641018,6.640361467057724,23.905301281407805,1200.1539607400146,-709.8539872332555,1394.3680334369744,7.23815427066045,0,1,1,0,1,2.641018,0.0014479999999998938,1
1970-01-18 21:45:31.048702727,51.760714,-1.261782,69.883508,-5.61844,2.996319,0.05601,-0.016924,-0.016583,2.648447,6.367479531444212,22.922926313199163,1032.4669480168816,-959.5225713542806,1409.4933712811935,37.14722883373067,0,1,1,0,1,2.648447,0.00742900000000013,1
1970-01-18 21:45:31.048902778,51.760704,-1.261773,69.872909,-5.385024,2.839583,0.055381,-0.011024,-0.016425,2.655302,6.087833366187432,21.916200118274755,1166.7824704700304,-783.4802125458008,1405.4261193129153,34.26626210316286,0,1,1,0,1,2.655302,0.0068549999999998334,1
1970-01-18 21:45:31.049102418,51.760695,-1.261765,69.86463,-5.169449,2.655798,0.021817,-0.007898,-0.015112,2.659863,5.811752401849635,20.922308646658685,1079.8186736124994,-920.5820476858361,1418.9713437570558,22.846123021439887,0,1,1,0,1,2.659863,0.004561000000000259,1
1970-01-18 21:45:31.049302469,51.760686,-1.261758,69.856986,-4.927956,2.567567,0.078702,-0.017533,-0.01596,2.662647,5.556721212857902,20.00419636628845,1207.1571749203963,-441.04253415379054,1285.2030819658776,13.916451304917844,0,1,1,0,1,2.662647,0.0027840000000001197,1
1970-01-18 21:45:31.049502520,51.760677,-1.26175,69.852272,-4.720146,2.396141,0.015064,-0.019624,-0.016223,2.667379,5.293512062251016,19.056643424103658,1038.785109797003,-856.9114875706688,1346.6149419438907,23.653968238097967,0,1,1,0,1,2.667379,0.004731999999999736,1
1970-01-18 21:45:31.049702571,51.760667,-1.261744,69.786755,-4.510658,2.264311,0.057258,-0.022151,-0.013474,2.676707,5.04709222203092,18.169531999311314,1047.1729708924197,-658.9819596003014,1237.2665250649552,46.62810983199286,0,1,1,0,1,2.676707,0.009328000000000003,1
1970-01-18 21:45:31.049902498,51.760659,-1.261737,69.78073,-4.306003,2.125647,0.030245,-0.026571,-0.013965,2.683754,4.802086734391414,17.287512243809093,1023.6486317505925,-693.5731542012852,1236.4870567513353,35.247865470897004,0,1,1,0,1,2.683754,0.0070470000000000255,1
1970-01-18 21:45:31.050102549,51.760651,-1.261731,69.773281,-4.115346,1.966737,0.02452,-0.026312,-0.012752,2.690881,4.561154144170639,16.4201549190143,953.0419742965537,-794.3474414024419,1240.6759699589893,35.625915391575674,0,1,1,0,1,2.690881,0.0071270000000001055,1
1970-01-18 21:45:31.050302357,51.760644,-1.261726,69.766757,-3.902011,1.849723,0.050017,-0.025363,-0.013417,2.695136,4.31823633221365,15.545650795969141,1067.6999919923119,-585.6322069186417,1217.763669469894,21.295443625881447,0,1,1,0,1,2.695136,0.00425500000000012,1
1970-01-18 21:45:31.050502408,51.760637,-1.261721,69.758687,-3.681545,1.720791,0.028617,-0.024934,-0.012886,2.699692,4.063852267578879,14.629868163283964,1102.048977510735,-644.4956536083301,1276.6701204118806,22.774192580891896,0,1,1,0,1,2.699692,0.0045560000000000045,1
1970-01-18 21:45:31.050702459,51.76063,-1.261716,69.684436,-3.472002,1.605278,0.038449,-0.026051,-0.013268,2.70314,3.825142526140431,13.770513094105551,1047.4479007853,-577.4177584715897,1196.0595188609498,17.23560492074358,0,1,1,0,1,2.70314,0.0034479999999996735,1
1970-01-18 21:45:31.050902321,51.760623,-1.261711,69.676602,-3.243262,1.491627,0.041282,-0.027857,-0.013707,2.706795,3.5698318598742156,12.851394695547176,1144.4896978915438,-568.647366683011,1277.973589795736,18.287618456736077,0,1,1,0,1,2.706795,0.003655000000000186,1
1970-01-18 21:45:31.051102372,51.760618,-1.261707,69.670584,-3.007338,1.355331,0.02121,-0.027821,-0.014184,2.709105,3.2986366829047724,11.87509205845718,1179.319273585237,-681.3062669019399,1361.9736335074435,11.547055500847454,0,1,1,0,1,2.709105,0.0023100000000000342,1
1970-01-18 21:45:31.051302423,51.760613,-1.261703,69.661636,-2.758541,1.241245,0.05421,-0.027616,-0.014059,2.710182,3.0249359660505215,10.889769477781877,1243.6678646945015,-570.2845774327553,1368.1864847057352,5.38362717507033,0,1,1,0,1,2.710182,0.0010769999999999946,1
1970-01-18 21:45:31.051502474,51.760608,-1.2617,69.651257,-2.577908,1.15393,0.06165,-0.028131,-0.012377,2.712747,2.8243873851446084,10.167794586520591,902.9347516383335,-436.4637017560524,1002.8916834168958,12.821730458731556,0,1,1,0,1,2.712747,0.0025649999999997064,1
1970-01-18 21:45:31.051702525,51.760603,-1.261697,69.637483,-2.511403,1.109358,0.064833,-0.027147,-0.009026,2.716478,2.745509096792979,9.883832748454726,332.4402277419249,-222.80318518777628,400.1971568501224,18.650244187732884,0,1,1,0,1,2.716478,0.003731000000000151,1
1970-01-18 21:45:31.051902576,51.760597,-1.261694,69.553015,-2.450667,1.073183,0.040175,-0.026877,-0.008071,2.719629,2.6753486681885037,9.631255205478613,303.60258134175734,-180.82888863339883,353.3746091073445,15.750983499207221,0,1,1,0,1,2.719629,0.003150999999999904,1
1970-01-18 21:45:31.052102627,51.760593,-1.261691,69.544922,-2.359381,1.02976,0.045,-0.027717,-0.008079,2.722449,2.5743124054319826,9.267524659555137,456.31364002179544,-217.05964978930368,505.30884579294263,14.096405416620096,0,1,1,0,1,2.722449,0.0028200000000002667,1
1970-01-18 21:45:31.052302678,51.760589,-1.261688,69.536736,-2.21684,0.941702,0.02943,-0.027666,-0.00815,2.724623,2.4085643529712883,8.670831670696638,712.5233065568282,-440.17775467255836,837.5236821100946,10.867228856639938,0,1,1,0,1,2.724623,0.002173999999999676,1
1970-01-18 21:45:31.052502729,51.760585,-1.261685,69.530216,-2.009357,0.858475,0.037522,-0.028016,-0.009381,2.726808,2.1850617563524377,7.866222322868776,1037.1505266157124,-416.0289126272803,1117.4798749870563,10.922214835218647,0,1,1,0,1,2.726808,0.0021850000000003256,1
1970-01-18 21:45:31.052702780,51.760581,-1.261683,69.572703,-1.832795,0.768875,0.045851,-0.028786,-0.008741,2.728387,1.9875377424466685,7.155135872808007,882.5849408400863,-447.8857891237735,989.7261529820883,7.892987288241484,0,1,1,0,1,2.728387,0.001578999999999997,1
1970-01-18 21:45:31.052902831,51.760578,-1.261681,69.564028,-1.642559,0.678405,0.035085,-0.028961,-0.007774,2.729858,1.7771419224434497,6.397710920796419,950.9375109347109,-452.23468015655976,1052.9949456854051,7.353124953136951,0,1,1,0,1,2.729858,0.001471,1
1970-01-18 21:45:31.053102882,51.760575,-1.261679,69.555652,-1.429294,0.57845,0.055562,-0.027398,-0.008426,2.731273,1.541909770685691,5.550875174468488,1066.0531564451067,-499.64758986458463,1177.3347214892046,7.073196334933202,0,1,1,0,1,2.731273,0.001414999999999722,1
1970-01-18 21:45:31.053302933,51.760573,-1.261677,69.545957,-1.168707,0.463927,0.03967,-0.025173,-0.008054,2.732066,1.257419704465458,4.5267109360756494,1302.60283627675,-572.4690203997983,1422.8474719356739,3.963989182759725,0,1,1,0,1,2.732066,0.0007930000000002657,1
1970-01-18 21:45:31.053502984,51.760571,-1.261676,69.535565,-0.874538,0.337099,0.048884,-0.024343,-0.008001,2.73296,0.9372579416814776,3.3741285900533193,1470.4700301423131,-633.9783355244413,1601.3152842151592,4.468860440586292,0,1,1,0,1,2.73296,0.0008939999999997283,1
1970-01-18 21:45:31.053703035,51.76057,-1.261676,69.567111,-0.594941,0.2144,0.051414,-0.02339,-0.007635,2.733723,0.6323939859620742,2.276618349463467,1397.6286047058,-613.3385986573422,1526.286327428387,3.814027423007479,0,1,1,0,1,2.733723,0.0007630000000000692,1
1970-01-18 21:45:31.053903086,51.760569,-1.261675,69.557413,-0.340193,0.10848,0.056016,-0.024043,-0.007134,2.733787,0.3570702839064041,1.285453022063055,1273.4152791038287,-529.4649864284609,1379.101027810788,0.31991842080301525,0,1,1,0,1,2.733787,6.4000000000064e-05,1
